{
  "meta": {
    "anchor": "DMC첨단산업센터 (서울 마포구 성암로 330)",
    "anchor_lat": 37.5845,
    "anchor_lng": 126.8856,
    "radius_m": 400,
    "count": 60,
    "purpose": "점심 맛집 지도 (회사 반경 400m, 음식점만)",
    "source": "naver map + 상암DMC 상권",
    "caveats": [
      "DMC첨단산업센터 기준 {RADIUS_M}m 이내 음식점만 (카페·편의점 제외).",
      "지도에 고르게 보이도록 방향별·거리 간격으로 60곳 선별.",
      "구내식당 코너는 점심 룰렛용 분리 표기.",
      "네이버 지도·상권 기준 좌표."
    ]
  },
  "restaurants": [
    {
      "name": "성암로328 한식",
      "signature_menu": "백반정식",
      "avg_price": "8000-10000",
      "category": "한식",
      "address": "서울 마포구 성암로 328",
      "lat": 37.58488,
      "lng": 126.88595,
      "rating": null,
      "rating_source": "none",
      "coord_confidence": "naver",
      "phone": ""
    },
    {
      "name": "헤비스테이크 상암DMC점",
      "signature_menu": "스테이크/치즈불고기",
      "avg_price": "8900-12000",
      "category": "양식",
      "address": "서울 마포구 월드컵북로 396",
      "lat": 37.58542,
      "lng": 126.88685,
      "rating": 4.2,
      "rating_source": "naver",
      "coord_confidence": "naver",
      "phone": ""
    },
    {
      "name": "맨하탄 그릴 & 바",
      "signature_menu": "스테이크/파스타",
      "avg_price": "15000-25000",
      "category": "양식/그릴",
      "address": "서울 마포구 월드컵북로58길 15",
      "lat": 37.5824,
      "lng": 126.88572,
      "rating": 4.0,
      "rating_source": "naver",
      "coord_confidence": "naver",
      "phone": ""
    },
    {
      "name": "월드컵북로388 분식",
      "signature_menu": "떡볶이/순대",
      "avg_price": "5000-8000",
      "category": "분식",
      "address": "서울 마포구 월드컵북로 388",
      "lat": 37.58365,
      "lng": 126.8848,
      "rating": null,
      "rating_source": "none",
      "coord_confidence": "naver",
      "phone": ""
    },
    {
      "name": "DMC푸르지오시티 푸드코트",
      "signature_menu": "한식/분식",
      "avg_price": "6000-9000",
      "category": "푸드코트",
      "address": "서울 마포구 월드컵북로 400",
      "lat": 37.58355,
      "lng": 126.8842,
      "rating": null,
      "rating_source": "none",
      "coord_confidence": "naver",
      "phone": ""
    },
    {
      "name": "한나절 고깃국",
      "signature_menu": "고깃국/우거지국",
      "avg_price": "9000-11000",
      "category": "국밥",
      "address": "서울 마포구 성암로 330 지1층",
      "lat": 37.5849,
      "lng": 126.8855,
      "rating": null,
      "rating_source": "none",
      "coord_confidence": "naver",
      "phone": ""
    },
    {
      "name": "죠스떡볶이 상암점",
      "signature_menu": "떡볶이/튀김",
      "avg_price": "4000-8000",
      "category": "분식",
      "address": "서울 마포구 가양대로 442",
      "lat": 37.58588,
      "lng": 126.8856,
      "rating": null,
      "rating_source": "none",
      "coord_confidence": "naver",
      "phone": ""
    },
    {
      "name": "가양대로438 중식",
      "signature_menu": "짬뽕/짜장",
      "avg_price": "7000-10000",
      "category": "중식",
      "address": "서울 마포구 가양대로 438",
      "lat": 37.58575,
      "lng": 126.8871,
      "rating": null,
      "rating_source": "none",
      "coord_confidence": "naver",
      "phone": ""
    },
    {
      "name": "월드컵북로58길 12 일식",
      "signature_menu": "돈까스/우동",
      "avg_price": "8000-11000",
      "category": "일식",
      "address": "서울 마포구 월드컵북로58길 12",
      "lat": 37.58245,
      "lng": 126.8862,
      "rating": null,
      "rating_source": "none",
      "coord_confidence": "naver",
      "phone": ""
    },
    {
      "name": "월드컵북로380 패스트푸드",
      "signature_menu": "버거/핫도그",
      "avg_price": "5000-9000",
      "category": "패스트푸드",
      "address": "서울 마포구 월드컵북로 380",
      "lat": 37.58335,
      "lng": 126.8854,
      "rating": null,
      "rating_source": "none",
      "coord_confidence": "naver",
      "phone": ""
    },
    {
      "name": "성암로13길 18 분식",
      "signature_menu": "김밥/라면",
      "avg_price": "4000-7000",
      "category": "분식",
      "address": "서울 마포구 성암로13길 18",
      "lat": 37.58435,
      "lng": 126.88305,
      "rating": null,
      "rating_source": "none",
      "coord_confidence": "naver",
      "phone": ""
    },
    {
      "name": "성암로322 국밥",
      "signature_menu": "설렁탕/곰탕",
      "avg_price": "9000-11000",
      "category": "국밥",
      "address": "서울 마포구 성암로 322",
      "lat": 37.58525,
      "lng": 126.88495,
      "rating": null,
      "rating_source": "none",
      "coord_confidence": "naver",
      "phone": ""
    },
    {
      "name": "가양대로434 한식",
      "signature_menu": "삼겹살/목살",
      "avg_price": "12000-16000",
      "category": "한식/고기",
      "address": "서울 마포구 가양대로 434",
      "lat": 37.58555,
      "lng": 126.8875,
      "rating": null,
      "rating_source": "none",
      "coord_confidence": "naver",
      "phone": ""
    },
    {
      "name": "스탠포드호텔 조선",
      "signature_menu": "한정식",
      "avg_price": "20000-30000",
      "category": "한식",
      "address": "서울 마포구 월드컵북로58길 15",
      "lat": 37.58235,
      "lng": 126.88665,
      "rating": null,
      "rating_source": "none",
      "coord_confidence": "naver",
      "phone": ""
    },
    {
      "name": "월드컵북로58길 5 한식",
      "signature_menu": "제육볶음/비빔밥",
      "avg_price": "8000-10000",
      "category": "한식",
      "address": "서울 마포구 월드컵북로58길 5",
      "lat": 37.5827,
      "lng": 126.8852,
      "rating": null,
      "rating_source": "none",
      "coord_confidence": "naver",
      "phone": ""
    },
    {
      "name": "매봉산로1길 중식",
      "signature_menu": "짜장면/탕수육",
      "avg_price": "7000-10000",
      "category": "중식",
      "address": "서울 마포구 매봉산로1길 8",
      "lat": 37.5832,
      "lng": 126.8836,
      "rating": null,
      "rating_source": "none",
      "coord_confidence": "naver",
      "phone": ""
    },
    {
      "name": "육쌈냉면 상암점",
      "signature_menu": "냉면/쌈밥",
      "avg_price": "9000-12000",
      "category": "한식",
      "address": "서울 마포구 가양대로 440",
      "lat": 37.58622,
      "lng": 126.88552,
      "rating": null,
      "rating_source": "none",
      "coord_confidence": "naver",
      "phone": ""
    },
    {
      "name": "레이시오",
      "signature_menu": "양식",
      "avg_price": "10000-15000",
      "category": "양식",
      "address": "서울 마포구 성암로 330",
      "lat": 37.58468,
      "lng": 126.88582,
      "rating": null,
      "rating_source": "none",
      "coord_confidence": "naver",
      "phone": ""
    },
    {
      "name": "델리FS Deli 코너",
      "signature_menu": "파스타/양식",
      "avg_price": "5500-6500",
      "category": "양식",
      "address": "서울 마포구 성암로 330 B동 8층",
      "lat": 37.58458,
      "lng": 126.88605,
      "rating": null,
      "rating_source": "none",
      "coord_confidence": "naver",
      "phone": ""
    },
    {
      "name": "성암로325 백반",
      "signature_menu": "일품백반",
      "avg_price": "8000-10000",
      "category": "한식",
      "address": "서울 마포구 성암로 325",
      "lat": 37.5851,
      "lng": 126.8852,
      "rating": null,
      "rating_source": "none",
      "coord_confidence": "naver",
      "phone": ""
    },
    {
      "name": "성암로332 구내외식",
      "signature_menu": "냉면/비빔밥",
      "avg_price": "8000-10000",
      "category": "한식",
      "address": "서울 마포구 성암로 332",
      "lat": 37.58495,
      "lng": 126.88625,
      "rating": null,
      "rating_source": "none",
      "coord_confidence": "naver",
      "phone": ""
    },
    {
      "name": "월드컵북로384 국밥",
      "signature_menu": "돼지국밥",
      "avg_price": "8000-10000",
      "category": "국밥",
      "address": "서울 마포구 월드컵북로 384",
      "lat": 37.5835,
      "lng": 126.8851,
      "rating": null,
      "rating_source": "none",
      "coord_confidence": "naver",
      "phone": ""
    },
    {
      "name": "월드컵북로392 한식",
      "signature_menu": "된장찌개/백반",
      "avg_price": "8000-10000",
      "category": "한식",
      "address": "서울 마포구 월드컵북로 392",
      "lat": 37.5838,
      "lng": 126.8845,
      "rating": null,
      "rating_source": "none",
      "coord_confidence": "naver",
      "phone": ""
    },
    {
      "name": "월드컵북로394 치킨",
      "signature_menu": "후라이드/양념",
      "avg_price": "15000-19000",
      "category": "치킨",
      "address": "서울 마포구 월드컵북로 394",
      "lat": 37.5853,
      "lng": 126.88705,
      "rating": null,
      "rating_source": "none",
      "coord_confidence": "naver",
      "phone": ""
    },
    {
      "name": "한솥 상암DMC점",
      "signature_menu": "도시락",
      "avg_price": "5000-7000",
      "category": "한식",
      "address": "서울 마포구 가양대로 440",
      "lat": 37.586,
      "lng": 126.8854,
      "rating": null,
      "rating_source": "none",
      "coord_confidence": "naver",
      "phone": ""
    },
    {
      "name": "돈까스클러 상암점",
      "signature_menu": "돈까스",
      "avg_price": "8000-10000",
      "category": "일식",
      "address": "서울 마포구 가양대로 442",
      "lat": 37.58602,
      "lng": 126.88586,
      "rating": null,
      "rating_source": "none",
      "coord_confidence": "naver",
      "phone": ""
    },
    {
      "name": "월드컵북로396 중식",
      "signature_menu": "마라탕/짬뽕",
      "avg_price": "8000-11000",
      "category": "중식",
      "address": "서울 마포구 월드컵북로 396",
      "lat": 37.5855,
      "lng": 126.8872,
      "rating": null,
      "rating_source": "none",
      "coord_confidence": "naver",
      "phone": ""
    },
    {
      "name": "월드컵북로402 푸드코트",
      "signature_menu": "한식/분식",
      "avg_price": "6000-9000",
      "category": "푸드코트",
      "address": "서울 마포구 월드컵북로 402",
      "lat": 37.5834,
      "lng": 126.8839,
      "rating": null,
      "rating_source": "none",
      "coord_confidence": "naver",
      "phone": ""
    },
    {
      "name": "월드컵북로58길 분식",
      "signature_menu": "떡볶이/김밥",
      "avg_price": "4000-8000",
      "category": "분식",
      "address": "서울 마포구 월드컵북로58길 9",
      "lat": 37.58255,
      "lng": 126.88485,
      "rating": null,
      "rating_source": "none",
      "coord_confidence": "naver",
      "phone": ""
    },
    {
      "name": "포메인 쌀국수 상암점",
      "signature_menu": "쌀국수/반미",
      "avg_price": "9000-11000",
      "category": "베트남",
      "address": "서울 마포구 성암로13길 24",
      "lat": 37.58415,
      "lng": 126.8828,
      "rating": 4.1,
      "rating_source": "naver",
      "coord_confidence": "naver",
      "phone": ""
    },
    {
      "name": "매봉산로1길 한식",
      "signature_menu": "보쌈/족발",
      "avg_price": "10000-14000",
      "category": "한식",
      "address": "서울 마포구 매봉산로1길 12",
      "lat": 37.58305,
      "lng": 126.8834,
      "rating": null,
      "rating_source": "none",
      "coord_confidence": "naver",
      "phone": ""
    },
    {
      "name": "일포베트남쌀국수",
      "signature_menu": "쌀국수/분짜",
      "avg_price": "9000-11000",
      "category": "베트남",
      "address": "서울 마포구 성암로13길 28",
      "lat": 37.5839,
      "lng": 126.88265,
      "rating": 4.2,
      "rating_source": "naver",
      "coord_confidence": "naver",
      "phone": ""
    },
    {
      "name": "매봉산로1길 16 국밥",
      "signature_menu": "순대국",
      "avg_price": "8000-10000",
      "category": "국밥",
      "address": "서울 마포구 매봉산로1길 16",
      "lat": 37.5829,
      "lng": 126.8832,
      "rating": null,
      "rating_source": "none",
      "coord_confidence": "naver",
      "phone": ""
    },
    {
      "name": "월드컵북로58길 20 양식",
      "signature_menu": "파스타/리조또",
      "avg_price": "10000-14000",
      "category": "양식",
      "address": "서울 마포구 월드컵북로58길 20",
      "lat": 37.5822,
      "lng": 126.887,
      "rating": null,
      "rating_source": "none",
      "coord_confidence": "naver",
      "phone": ""
    },
    {
      "name": "성암로13길 34 태국",
      "signature_menu": "팟타이/똠얌",
      "avg_price": "9000-12000",
      "category": "태국",
      "address": "서울 마포구 성암로13길 34",
      "lat": 37.58385,
      "lng": 126.88235,
      "rating": null,
      "rating_source": "none",
      "coord_confidence": "naver",
      "phone": ""
    },
    {
      "name": "델리FS Korean 코너",
      "signature_menu": "제육볶음/한식",
      "avg_price": "5500-6500",
      "category": "한식/백반",
      "address": "서울 마포구 성암로 330 B동 8층",
      "lat": 37.58462,
      "lng": 126.88595,
      "rating": null,
      "rating_source": "none",
      "coord_confidence": "naver",
      "phone": ""
    },
    {
      "name": "델리FS 테이크아웃",
      "signature_menu": "간편식/라면",
      "avg_price": "3000-6500",
      "category": "분식",
      "address": "서울 마포구 성암로 330 B동 8층",
      "lat": 37.58456,
      "lng": 126.88598,
      "rating": null,
      "rating_source": "none",
      "coord_confidence": "naver",
      "phone": ""
    },
    {
      "name": "월반 맛이 깊은집",
      "signature_menu": "월반정식/제육볶음",
      "avg_price": "8000-10000",
      "category": "한식",
      "address": "서울 마포구 성암로 330",
      "lat": 37.58473,
      "lng": 126.8859,
      "rating": 4.0,
      "rating_source": "naver",
      "coord_confidence": "naver",
      "phone": ""
    },
    {
      "name": "델리FS DMC첨단산업센터 구내식당",
      "signature_menu": "뷔페식 중식",
      "avg_price": "5500-6500",
      "category": "한식/백반",
      "address": "서울 마포구 성암로 330 B동 8층",
      "lat": 37.5846,
      "lng": 126.886,
      "rating": 4.2,
      "rating_source": "naver",
      "coord_confidence": "naver",
      "phone": ""
    },
    {
      "name": "델리FS Kitchen 코너",
      "signature_menu": "국밥/정식",
      "avg_price": "5500-6500",
      "category": "한식",
      "address": "서울 마포구 성암로 330 B동 8층",
      "lat": 37.58464,
      "lng": 126.88608,
      "rating": null,
      "rating_source": "none",
      "coord_confidence": "naver",
      "phone": ""
    },
    {
      "name": "오한수우육면가 상암DMC점",
      "signature_menu": "우육면/냉면",
      "avg_price": "9000-12000",
      "category": "중식",
      "address": "서울 마포구 성암로 330",
      "lat": 37.58492,
      "lng": 126.88542,
      "rating": 4.0,
      "rating_source": "naver",
      "coord_confidence": "naver",
      "phone": ""
    },
    {
      "name": "새참당 상암DMC본점",
      "signature_menu": "김치제육덮밥/파스타",
      "avg_price": "9000-12000",
      "category": "퓨전한식",
      "address": "서울 마포구 월드컵북로 396",
      "lat": 37.58538,
      "lng": 126.8869,
      "rating": 4.3,
      "rating_source": "naver",
      "coord_confidence": "naver",
      "phone": ""
    },
    {
      "name": "오복소바 상암점",
      "signature_menu": "소바/우동",
      "avg_price": "9000-12000",
      "category": "일식",
      "address": "서울 마포구 월드컵북로 396",
      "lat": 37.58535,
      "lng": 126.88695,
      "rating": 4.1,
      "rating_source": "naver",
      "coord_confidence": "naver",
      "phone": ""
    },
    {
      "name": "원할머니보쌈족발 상암점",
      "signature_menu": "보쌈/족발",
      "avg_price": "10000-15000",
      "category": "한식",
      "address": "서울 마포구 가양대로 440",
      "lat": 37.58587,
      "lng": 126.8855,
      "rating": null,
      "rating_source": "none",
      "coord_confidence": "naver",
      "phone": ""
    },
    {
      "name": "도미노피자 상암점",
      "signature_menu": "피자",
      "avg_price": "10000-15000",
      "category": "양식/피자",
      "address": "서울 마포구 가양대로 442",
      "lat": 37.58589,
      "lng": 126.88564,
      "rating": null,
      "rating_source": "none",
      "coord_confidence": "naver",
      "phone": ""
    },
    {
      "name": "롯데리아 상암점",
      "signature_menu": "버거",
      "avg_price": "4000-8000",
      "category": "패스트푸드",
      "address": "서울 마포구 가양대로 440",
      "lat": 37.58588,
      "lng": 126.88538,
      "rating": null,
      "rating_source": "none",
      "coord_confidence": "naver",
      "phone": ""
    },
    {
      "name": "미스터피자 상암점",
      "signature_menu": "피자",
      "avg_price": "10000-15000",
      "category": "양식/피자",
      "address": "서울 마포구 가양대로 440",
      "lat": 37.5859,
      "lng": 126.88552,
      "rating": null,
      "rating_source": "none",
      "coord_confidence": "naver",
      "phone": ""
    },
    {
      "name": "본도시락 상암점",
      "signature_menu": "도시락",
      "avg_price": "5000-7000",
      "category": "한식",
      "address": "서울 마포구 가양대로 442",
      "lat": 37.5859,
      "lng": 126.88572,
      "rating": null,
      "rating_source": "none",
      "coord_confidence": "naver",
      "phone": ""
    },
    {
      "name": "서브웨이 상암점",
      "signature_menu": "샌드위치",
      "avg_price": "6000-9000",
      "category": "패스트푸드",
      "address": "서울 마포구 가양대로 442",
      "lat": 37.58591,
      "lng": 126.88556,
      "rating": null,
      "rating_source": "none",
      "coord_confidence": "naver",
      "phone": ""
    },
    {
      "name": "신의주찹쌀순대 상암점",
      "signature_menu": "순대국",
      "avg_price": "8000-10000",
      "category": "국밥",
      "address": "서울 마포구 가양대로 440",
      "lat": 37.58592,
      "lng": 126.88548,
      "rating": null,
      "rating_source": "none",
      "coord_confidence": "naver",
      "phone": ""
    },
    {
      "name": "놀부부대찌개 상암점",
      "signature_menu": "부대찌개",
      "avg_price": "8000-10000",
      "category": "한식",
      "address": "서울 마포구 가양대로 442",
      "lat": 37.58593,
      "lng": 126.88566,
      "rating": null,
      "rating_source": "none",
      "coord_confidence": "naver",
      "phone": ""
    },
    {
      "name": "본죽 상암점",
      "signature_menu": "전복죽/닭죽",
      "avg_price": "8000-10000",
      "category": "한식/죽",
      "address": "서울 마포구 가양대로 442",
      "lat": 37.58595,
      "lng": 126.88564,
      "rating": 4.0,
      "rating_source": "naver",
      "coord_confidence": "naver",
      "phone": ""
    },
    {
      "name": "홍콩반점 상암점",
      "signature_menu": "짜장면",
      "avg_price": "7000-10000",
      "category": "중식",
      "address": "서울 마포구 가양대로 442",
      "lat": 37.58597,
      "lng": 126.88562,
      "rating": null,
      "rating_source": "none",
      "coord_confidence": "naver",
      "phone": ""
    },
    {
      "name": "역전우동0410 상암점",
      "signature_menu": "우동/가츠동",
      "avg_price": "7000-10000",
      "category": "일식(우동)",
      "address": "서울 마포구 가양대로 440",
      "lat": 37.58598,
      "lng": 126.88552,
      "rating": 4.1,
      "rating_source": "naver",
      "coord_confidence": "naver",
      "phone": ""
    },
    {
      "name": "김밥천국 상암점",
      "signature_menu": "김밥/라면",
      "avg_price": "4000-8000",
      "category": "분식",
      "address": "서울 마포구 가양대로 442",
      "lat": 37.586,
      "lng": 126.88558,
      "rating": 3.8,
      "rating_source": "naver",
      "coord_confidence": "naver",
      "phone": ""
    },
    {
      "name": "맘스터치 상암점",
      "signature_menu": "버거",
      "avg_price": "5000-9000",
      "category": "패스트푸드",
      "address": "서울 마포구 가양대로 440",
      "lat": 37.58601,
      "lng": 126.88554,
      "rating": null,
      "rating_source": "none",
      "coord_confidence": "naver",
      "phone": ""
    },
    {
      "name": "청년다방 상암점",
      "signature_menu": "떡볶이",
      "avg_price": "5000-8000",
      "category": "분식",
      "address": "서울 마포구 가양대로 440",
      "lat": 37.58602,
      "lng": 126.8855,
      "rating": null,
      "rating_source": "none",
      "coord_confidence": "naver",
      "phone": ""
    },
    {
      "name": "교촌치킨 상암점",
      "signature_menu": "치킨",
      "avg_price": "15000-20000",
      "category": "치킨",
      "address": "서울 마포구 가양대로 440",
      "lat": 37.58603,
      "lng": 126.88548,
      "rating": null,
      "rating_source": "none",
      "coord_confidence": "naver",
      "phone": ""
    },
    {
      "name": "순대국밥 상암점",
      "signature_menu": "순대국",
      "avg_price": "8000-10000",
      "category": "국밥",
      "address": "서울 마포구 가양대로 442",
      "lat": 37.58604,
      "lng": 126.88584,
      "rating": null,
      "rating_source": "none",
      "coord_confidence": "naver",
      "phone": ""
    },
    {
      "name": "미스사이공 상암DMC점",
      "signature_menu": "쌀국수/분짜",
      "avg_price": "9000-12000",
      "category": "베트남",
      "address": "서울 마포구 가양대로 440",
      "lat": 37.58605,
      "lng": 126.88542,
      "rating": 4.0,
      "rating_source": "naver",
      "coord_confidence": "naver",
      "phone": ""
    }
  ]
}
