{
  "meta": {
    "anchor": "DMC첨단산업센터 (서울 마포구 성암로 330)",
    "anchor_lat": 37.5845,
    "anchor_lng": 126.8856,
    "count": 29,
    "purpose": "점심 맛집 지도 (회사 도보 700m 이내, 술집/이자카야 제외)",
    "source": "웹검색 + 지오코딩 (다이닝코드/네이버지도/오픈스트리트맵)",
    "caveats": [
      "lat/lng는 도로명주소 기반 근사값(coord_confidence=approximate).",
      "DMC첨단산업센터 기준 도보 약 7분(700m) 이내만 포함했습니다.",
      "rating은 실제 조회값만 사용. 못 찾으면 rating=null.",
      "영업시간·가격은 변동될 수 있으니 방문 전 확인 권장."
    ],
    "fields": {
      "name": "상호명",
      "signature_menu": "대표메뉴",
      "avg_price": "1인 평균 가격대(원)",
      "category": "메뉴유형",
      "address": "도로명주소",
      "lat": "위도",
      "lng": "경도",
      "coord_confidence": "좌표 신뢰도(approximate/verified)",
      "phone": "전화번호",
      "rating": "평점(5점만점, 없으면 null)",
      "rating_source": "평점 출처(diningcode/naver/tripadvisor/none)"
    }
  },
  "restaurants": [
    {"name":"델리FS DMC첨단산업센터 구내식당","signature_menu":"뷔페식 중식","avg_price":"5500-6500","category":"한식/백반","address":"서울 마포구 성암로 330 DMC첨단산업센터 B동 8층","lat":37.5846,"lng":126.8860,"coord_confidence":"approximate","phone":"02-3453-0835","rating":4.2,"rating_source":"naver"},
    {"name":"한나절 고깃국","signature_menu":"고깃국/우거지국","avg_price":"9000-11000","category":"국밥","address":"서울 마포구 성암로 330 DMC첨단산업센터 지1층 B106호","lat":37.5849,"lng":126.8855,"coord_confidence":"approximate","phone":"","rating":null,"rating_source":"none"},
    {"name":"월반 맛이 깊은집","signature_menu":"월반정식/제육볶음","avg_price":"8000-10000","category":"한식","address":"서울 마포구 성암로 330 DMC첨단산업센터","lat":37.58473,"lng":126.88590,"coord_confidence":"approximate","phone":"","rating":4.0,"rating_source":"naver"},
    {"name":"투썸플레이스 상암우리센터","signature_menu":"샌드위치/케이크","avg_price":"6000-10000","category":"카페(식사가능)","address":"서울 마포구 성암로 330 DMC첨단산업센터","lat":37.58455,"lng":126.88575,"coord_confidence":"approximate","phone":"","rating":4.0,"rating_source":"naver"},
    {"name":"파리바게뜨 상암DMC점","signature_menu":"샌드위치/베이커리","avg_price":"4000-8000","category":"카페(식사가능)","address":"서울 마포구 성암로 328","lat":37.58487,"lng":126.88582,"coord_confidence":"approximate","phone":"","rating":4.0,"rating_source":"naver"},
    {"name":"이디야커피 상암DMC점","signature_menu":"샌드위치/커피","avg_price":"5000-8000","category":"카페(식사가능)","address":"서울 마포구 성암로 328","lat":37.58483,"lng":126.88588,"coord_confidence":"approximate","phone":"","rating":3.9,"rating_source":"naver"},
    {"name":"역전우동0410 상암점","signature_menu":"우동/가츠동","avg_price":"7000-10000","category":"일식(우동)","address":"서울 마포구 가양대로 440","lat":37.58598,"lng":126.88552,"coord_confidence":"approximate","phone":"","rating":4.1,"rating_source":"naver"},
    {"name":"본죽 상암점","signature_menu":"전복죽/닭죽","avg_price":"8000-10000","category":"한식/죽","address":"서울 마포구 가양대로 442","lat":37.58595,"lng":126.88564,"coord_confidence":"approximate","phone":"","rating":4.0,"rating_source":"naver"},
    {"name":"김밥천국 상암점","signature_menu":"김밥/라면","avg_price":"4000-8000","category":"분식","address":"서울 마포구 가양대로 442","lat":37.58600,"lng":126.88558,"coord_confidence":"approximate","phone":"","rating":3.8,"rating_source":"naver"},
    {"name":"맨하탄 그릴 & 바","signature_menu":"스테이크/파스타","avg_price":"15000-25000","category":"양식/그릴","address":"서울 마포구 월드컵북로58길 15 스탠포드호텔 지하1층","lat":37.58240,"lng":126.88572,"coord_confidence":"approximate","phone":"02-6016-0001","rating":4.0,"rating_source":"naver"},
    {"name":"카페 스탠포드","signature_menu":"런치 뷔페","avg_price":"15000-22000","category":"양식/뷔페","address":"서울 마포구 월드컵북로58길 15 스탠포드호텔 1층","lat":37.58233,"lng":126.88671,"coord_confidence":"approximate","phone":"02-6016-0001","rating":4.1,"rating_source":"naver"},
    {"name":"스탠포드호텔 소호","signature_menu":"샌드위치/브런치","avg_price":"8000-14000","category":"브런치","address":"서울 마포구 월드컵북로58길 15","lat":37.58230,"lng":126.88675,"coord_confidence":"approximate","phone":"02-6016-0000","rating":null,"rating_source":"none"},
    {"name":"미분당 상암DMC점","signature_menu":"차돌박이쌀국수","avg_price":"9500-13000","category":"아시안(베트남)","address":"서울 마포구 월드컵북로56길 19 드림타워 101-2호","lat":37.58242,"lng":126.88828,"coord_confidence":"approximate","phone":"02-6226-4001","rating":4.5,"rating_source":"diningcode"},
    {"name":"바스버거 상암DMC점","signature_menu":"수제버거","avg_price":"11000-15000","category":"수제버거","address":"서울 마포구 월드컵북로56길 19 드림타워 2층","lat":37.58238,"lng":126.88838,"coord_confidence":"approximate","phone":"02-6226-4224","rating":4.1,"rating_source":"diningcode"},
    {"name":"멘쇼우라멘 상암DMC점","signature_menu":"돈코츠라멘","avg_price":"8500-11000","category":"일식(라멘)","address":"서울 마포구 월드컵북로54길 17 사보이시티 A동 지하1층 B113호","lat":37.58135,"lng":126.88850,"coord_confidence":"approximate","phone":"0507-1382-1848","rating":4.4,"rating_source":"diningcode"},
    {"name":"동남집 상암점","signature_menu":"양지곰탕","avg_price":"10000-13000","category":"한식/탕","address":"서울 마포구 월드컵북로54길 17 사보이시티 119호","lat":37.58130,"lng":126.88859,"coord_confidence":"approximate","phone":"","rating":5.0,"rating_source":"diningcode"},
    {"name":"상암회관","signature_menu":"콩국수","avg_price":"10000-13000","category":"면류","address":"서울 마포구 월드컵북로54길 17","lat":37.58132,"lng":126.88855,"coord_confidence":"approximate","phone":"02-303-1950","rating":4.6,"rating_source":"diningcode"},
    {"name":"샐러디 상암DMC점","signature_menu":"닭다리살 샐러드","avg_price":"9000-13000","category":"샐러드","address":"서울 마포구 월드컵북로54길 25 상암DMC푸르지오 1층 119호","lat":37.58134,"lng":126.88860,"coord_confidence":"approximate","phone":"02-307-7977","rating":4.0,"rating_source":"diningcode"},
    {"name":"유타로 상암점","signature_menu":"돈코츠라멘","avg_price":"9000-12000","category":"일식(라멘)","address":"서울 마포구 월드컵북로54길 25 S-City 지하1층 B110호","lat":37.58131,"lng":126.88849,"coord_confidence":"approximate","phone":"","rating":4.0,"rating_source":"diningcode"},
    {"name":"뚜띠쿠치나 상암점","signature_menu":"화덕피자/파스타","avg_price":"12000-18000","category":"양식/이탈리안","address":"서울 마포구 월드컵북로 400 서울경제진흥원 1층 A111호","lat":37.58068,"lng":126.88980,"coord_confidence":"approximate","phone":"02-302-0242","rating":4.2,"rating_source":"naver"},
    {"name":"맥도날드 상암DMC점","signature_menu":"빅맥/맥스파이시","avg_price":"6000-10000","category":"패스트푸드","address":"서울 마포구 월드컵북로 400","lat":37.58064,"lng":126.88988,"coord_confidence":"approximate","phone":"02-304-5500","rating":4.2,"rating_source":"diningcode"},
    {"name":"오퍼레이션베이글","signature_menu":"베이글 샌드위치","avg_price":"6000-10000","category":"브런치","address":"서울 마포구 월드컵북로 400 마포문화비축기지","lat":37.58066,"lng":126.88984,"coord_confidence":"approximate","phone":"","rating":4.3,"rating_source":"naver"},
    {"name":"용무있습니까 상암점","signature_menu":"짜장면/짬짜면","avg_price":"8000-12000","category":"중식","address":"서울 마포구 성암로 267 MBC몰파크 지하1층 B117호","lat":37.58106,"lng":126.89044,"coord_confidence":"approximate","phone":"02-373-1117","rating":4.3,"rating_source":"diningcode"},
    {"name":"여우애김밥 상암DMC점","signature_menu":"김밥/분식","avg_price":"4000-8000","category":"분식","address":"서울 마포구 월드컵북로 396 누리꿈스퀘어 1층 112호","lat":37.57950,"lng":126.88982,"coord_confidence":"approximate","phone":"02-3152-0672","rating":null,"rating_source":"none"},
    {"name":"새참당 상암DMC본점","signature_menu":"LA갈비덮밥","avg_price":"13000-16000","category":"한식","address":"서울 마포구 월드컵북로 396 누리꿈스퀘어 1층 110-111호","lat":37.57948,"lng":126.88990,"coord_confidence":"approximate","phone":"02-6954-1566","rating":4.2,"rating_source":"diningcode"},
    {"name":"노브랜드버거 상암DMC점","signature_menu":"NBB 시그니처 버거","avg_price":"5000-9000","category":"패스트푸드/햄버거","address":"서울 마포구 월드컵북로 396 누리꿈스퀘어","lat":37.57946,"lng":126.88986,"coord_confidence":"approximate","phone":"","rating":3.7,"rating_source":"diningcode"},
    {"name":"포36거리 상암점","signature_menu":"쌀국수/분짜","avg_price":"9000-13000","category":"아시안(베트남)","address":"서울 마포구 월드컵북로 396 누리꿈스퀘어 지하1층 B1079호","lat":37.57944,"lng":126.88992,"coord_confidence":"approximate","phone":"","rating":4.6,"rating_source":"diningcode"},
    {"name":"선향정샤브샤브","signature_menu":"1인 샤브샤브","avg_price":"9500-13000","category":"한식/샤브","address":"서울 마포구 월드컵북로 396 누리꿈스퀘어 지하1층 1041호","lat":37.57949,"lng":126.88988,"coord_confidence":"approximate","phone":"","rating":null,"rating_source":"none"},
    {"name":"누리정","signature_menu":"두부김치찌개","avg_price":"8500-10000","category":"한식","address":"서울 마포구 월드컵북로 396 누리꿈스퀘어","lat":37.57947,"lng":126.88984,"coord_confidence":"approximate","phone":"02-2231-0715","rating":null,"rating_source":"none"}
  ]
}
