{
  "meta": {
    "anchor": "DMC첨단산업센터 (서울 마포구 성암로 330)",
    "anchor_lat": 37.5845,
    "anchor_lng": 126.8856,
    "count": 40,
    "purpose": "점심 맛집 지도 (술집/이자카야 제외)",
    "source": "웹검색 (다이닝코드/네이버지도/카카오맵/식신)",
    "caveats": [
      "lat/lng는 도로명주소 기반 best-effort 근사값(coord_confidence=approximate). 정밀 핀이 필요하면 카카오/네이버 지오코딩으로 재변환 권장.",
      "rating은 실제 조회값만 사용. 못 찾으면 rating=null, rating_source=none. 일부는 리뷰 표본이 적음.",
      "영업시간·가격은 변동될 수 있으니 방문 전 확인 권장."
    ],
    "fields": {
      "name": "상호명",
      "signature_menu": "대표메뉴",
      "avg_price": "1인 평균 가격대(원)",
      "category": "메뉴유형",
      "address": "도로명주소",
      "lat": "위도",
      "lng": "경도",
      "coord_confidence": "좌표 신뢰도(approximate/verified)",
      "phone": "전화번호",
      "rating": "평점(5점만점, 없으면 null)",
      "rating_source": "평점 출처(diningcode/naver/tripadvisor/none)"
    }
  },
  "restaurants": [
    {"name":"전주현대옥 상암DMC점","signature_menu":"콩나물국밥","avg_price":"8000-10000","category":"국밥","address":"서울 마포구 상암산로 76 YTN 뉴스퀘어 지하1층","lat":37.5793,"lng":126.8895,"coord_confidence":"approximate","phone":"0507-1406-0069","rating":4.5,"rating_source":"diningcode"},
    {"name":"부산아지매국밥 상암DMC점","signature_menu":"돼지국밥/쭈꾸미비빔밥","avg_price":"9000-12000","category":"국밥","address":"서울 마포구 월드컵북로 375 이안단지 1층","lat":37.5807,"lng":126.8888,"coord_confidence":"approximate","phone":"02-6393-6499","rating":4.0,"rating_source":"diningcode"},
    {"name":"다가이순대국 상암점","signature_menu":"순대국","avg_price":"9000-12000","category":"국밥","address":"서울 마포구 월드컵북로44길 67","lat":37.5785,"lng":126.8902,"coord_confidence":"approximate","phone":"","rating":4.2,"rating_source":"diningcode"},
    {"name":"옥된장 상암점","signature_menu":"된장찌개/전골","avg_price":"10000-14000","category":"한식/찌개","address":"서울 마포구 월드컵북로44길 63 2층","lat":37.5784,"lng":126.8901,"coord_confidence":"approximate","phone":"0507-1331-2482","rating":4.2,"rating_source":"diningcode"},
    {"name":"동남집 상암점","signature_menu":"양지곰탕","avg_price":"10000-13000","category":"한식/탕","address":"서울 마포구 월드컵북로54길 17 사보이시티디엠씨 119호","lat":37.5779,"lng":126.8896,"coord_confidence":"approximate","phone":"","rating":5.0,"rating_source":"diningcode"},
    {"name":"배꼽집 상암점","signature_menu":"양곰탕/평양냉면","avg_price":"12000-16000","category":"한식/면류","address":"서울 마포구 월드컵북로54길 17","lat":37.5779,"lng":126.8896,"coord_confidence":"approximate","phone":"02-304-9293","rating":4.0,"rating_source":"diningcode"},
    {"name":"상암회관","signature_menu":"콩국수","avg_price":"10000-13000","category":"면류","address":"서울 마포구 월드컵북로54길 17","lat":37.5778,"lng":126.8897,"coord_confidence":"approximate","phone":"02-303-1950","rating":4.6,"rating_source":"diningcode"},
    {"name":"새참당 상암DMC본점","signature_menu":"LA갈비덮밥","avg_price":"13000-16000","category":"한식","address":"서울 마포구 월드컵북로 396 누리꿈스퀘어 1층 110-111호","lat":37.5785,"lng":126.8893,"coord_confidence":"approximate","phone":"02-6954-1566","rating":4.2,"rating_source":"diningcode"},
    {"name":"선향정샤브샤브","signature_menu":"1인 샤브샤브","avg_price":"9500-13000","category":"한식/면류","address":"서울 마포구 월드컵북로 396 누리꿈스퀘어 지하1층 1041호","lat":37.5785,"lng":126.8892,"coord_confidence":"approximate","phone":"","rating":null,"rating_source":"none"},
    {"name":"여우애김밥 상암DMC점","signature_menu":"김밥/분식","avg_price":"4000-8000","category":"분식","address":"서울 마포구 월드컵북로 396 누리꿈스퀘어 1층 112호","lat":37.5786,"lng":126.8892,"coord_confidence":"approximate","phone":"02-3152-0672","rating":null,"rating_source":"none"},
    {"name":"영미화 상암점","signature_menu":"김밥/분식","avg_price":"4000-8000","category":"분식","address":"서울 마포구 상암동 1655 상가동 105호","lat":37.5801,"lng":126.8885,"coord_confidence":"approximate","phone":"02-305-3055","rating":4.0,"rating_source":"diningcode"},
    {"name":"밥플러스 KBS미디어센터점","signature_menu":"한식뷔페","avg_price":"7500-8500","category":"한식/백반","address":"서울 마포구 매봉산로 75 KBS미디어센터 지하1층","lat":37.5797,"lng":126.8915,"coord_confidence":"approximate","phone":"","rating":4.5,"rating_source":"diningcode"},
    {"name":"용무있습니까 상암점","signature_menu":"짜장면, 짬짜면, 탕수육","avg_price":"8000-12000","category":"중식","address":"서울 마포구 성암로 267 MBC몰파크 지하1층 B117호","lat":37.5793,"lng":126.8895,"coord_confidence":"approximate","phone":"02-373-1117","rating":4.3,"rating_source":"diningcode"},
    {"name":"서룡","signature_menu":"된장짬뽕, 된장짜장, 등심탕수육","avg_price":"12000-18000","category":"중식","address":"서울 마포구 월드컵북로 361 DMC이안오피스텔2단지 201호","lat":37.5805,"lng":126.8888,"coord_confidence":"approximate","phone":"0507-1432-4040","rating":3.6,"rating_source":"diningcode"},
    {"name":"피슈마라홍탕 상암DMC점","signature_menu":"마라탕, 마라샹궈, 꿔바로우","avg_price":"12000-16000","category":"중식(마라)","address":"서울 마포구 매봉산로 80 PARK-M 1층 7·8호","lat":37.5786,"lng":126.8918,"coord_confidence":"approximate","phone":"","rating":4.1,"rating_source":"diningcode"},
    {"name":"김영섭초밥","signature_menu":"모듬초밥, 달인세트, 연어 불초밥","avg_price":"27000-35000","category":"일식(초밥)","address":"서울 마포구 월드컵북로 352-18 1층","lat":37.5801,"lng":126.8893,"coord_confidence":"approximate","phone":"02-3152-0900","rating":4.2,"rating_source":"diningcode"},
    {"name":"마이클돈까스 본점","signature_menu":"매운치즈돈까스, 두툼돈까스, 새우튀김카레","avg_price":"10000-13000","category":"일식(돈카츠)","address":"서울 마포구 월드컵북로 381 상암월드컵파크4단지상가 212호","lat":37.5818,"lng":126.8865,"coord_confidence":"approximate","phone":"","rating":4.5,"rating_source":"diningcode"},
    {"name":"멘쇼우라멘 상암DMC점","signature_menu":"돈코츠라멘, 마제소바, 쿠로라멘","avg_price":"8500-11000","category":"일식(라멘)","address":"서울 마포구 월드컵북로54길 17 사보이시티 A동 지하1층 B113호","lat":37.5797,"lng":126.8902,"coord_confidence":"approximate","phone":"0507-1382-1848","rating":4.4,"rating_source":"diningcode"},
    {"name":"유타로 상암점","signature_menu":"하카타돈코츠라멘(시로/쿠로), 교자, 오코노미야키","avg_price":"9000-12000","category":"일식(라멘)","address":"서울 마포구 월드컵북로54길 25 상암DMC푸르지오시티 S-City 지하1층 B110호","lat":37.5799,"lng":126.8905,"coord_confidence":"approximate","phone":"","rating":4.0,"rating_source":"diningcode"},
    {"name":"큐슈울트라아멘 상암점","signature_menu":"울트라아멘, 마제소바, 츠케멘","avg_price":"11000-15000","category":"일식(라멘)","address":"서울 마포구 월드컵북로48길 24","lat":37.5789,"lng":126.8896,"coord_confidence":"approximate","phone":"070-8844-1590","rating":null,"rating_source":"none"},
    {"name":"미분당 상암DMC점","signature_menu":"차돌박이쌀국수, 양지쌀국수","avg_price":"9500-13000","category":"아시안(베트남)","address":"서울 마포구 월드컵북로56길 19 드림타워 101-2호","lat":37.5803,"lng":126.8910,"coord_confidence":"approximate","phone":"02-6226-4001","rating":4.5,"rating_source":"diningcode"},
    {"name":"일포베트남쌀국수","signature_menu":"쌀국수, 분짜, 팟타이","avg_price":"9000-12000","category":"아시안(베트남)","address":"서울 마포구 성암로13길 28 1층","lat":37.5790,"lng":126.8888,"coord_confidence":"approximate","phone":"0507-1364-9321","rating":4.3,"rating_source":"diningcode"},
    {"name":"포36거리 상암점","signature_menu":"쌀국수, 분짜, 베트남 요리","avg_price":"9000-13000","category":"아시안(베트남)","address":"서울 마포구 월드컵북로 396 누리꿈스퀘어 지하1층 B1079·1080호","lat":37.5800,"lng":126.8884,"coord_confidence":"approximate","phone":"","rating":4.6,"rating_source":"diningcode"},
    {"name":"스시윤","signature_menu":"초밥(런치 스시 오마카세)","avg_price":"15000-30000","category":"일식(초밥)","address":"서울 마포구 월드컵북로 396 누리꿈스퀘어 일대 (상암동)","lat":37.5799,"lng":126.8887,"coord_confidence":"approximate","phone":"","rating":null,"rating_source":"none"},
    {"name":"매드포갈릭 상암MBC점","signature_menu":"갈릭 스노잉 피자","avg_price":"28000-35000","category":"양식/이탈리안","address":"서울 마포구 성암로 255 MBC몰 플라자 2층","lat":37.5806,"lng":126.8916,"coord_confidence":"approximate","phone":"0507-1306-0556","rating":4.0,"rating_source":"diningcode"},
    {"name":"바스버거 상암DMC점","signature_menu":"바스버거 (무한리필 감자칩)","avg_price":"11000-15000","category":"수제버거","address":"서울 마포구 월드컵북로56길 19 드림타워 2층","lat":37.5825,"lng":126.8902,"coord_confidence":"approximate","phone":"02-6226-4224","rating":4.1,"rating_source":"diningcode"},
    {"name":"도미니칸조","signature_menu":"허니리코타치즈 샌드위치","avg_price":"6000-12000","category":"브런치/카페","address":"서울 마포구 월드컵북로 361 이안오피스텔2단지 106호","lat":37.5811,"lng":126.8884,"coord_confidence":"approximate","phone":"0507-0288-7715","rating":4.0,"rating_source":"diningcode"},
    {"name":"빌리엔젤 상암DMC점","signature_menu":"명란 크림우동 / 케이크","avg_price":"4600-10000","category":"카페(식사가능)/디저트","address":"서울 마포구 상암동 1610 1층 105호","lat":37.5803,"lng":126.8878,"coord_confidence":"approximate","phone":"070-4117-2323","rating":null,"rating_source":"none"},
    {"name":"도미노피자 상암점","signature_menu":"블랙타이거 슈림프 피자","avg_price":"12000-18000","category":"피자","address":"서울 마포구 월드컵북로 336","lat":37.5799,"lng":126.8889,"coord_confidence":"approximate","phone":"02-302-3051","rating":4.0,"rating_source":"diningcode"},
    {"name":"폴바셋 MBC몰 파크점","signature_menu":"아메리카노 / 샌드위치","avg_price":"5000-12000","category":"카페(식사가능)","address":"서울 마포구 성암로 267 MBC몰 파크 103호","lat":37.5808,"lng":126.8919,"coord_confidence":"approximate","phone":"02-303-2330","rating":4.3,"rating_source":"diningcode"},
    {"name":"노브랜드버거 메가박스상암점","signature_menu":"NBB 시그니처 버거","avg_price":"5000-9000","category":"패스트푸드/햄버거","address":"서울 마포구 월드컵로 240 메가박스 1층","lat":37.5785,"lng":126.8908,"coord_confidence":"approximate","phone":"070-4102-0070","rating":3.7,"rating_source":"diningcode"},
    {"name":"맥도날드 상암DMC점","signature_menu":"빅맥 / 맥스파이시 상하이버거","avg_price":"6000-10000","category":"패스트푸드/햄버거","address":"서울 마포구 월드컵북로 400","lat":37.5818,"lng":126.8896,"coord_confidence":"approximate","phone":"02-304-5500","rating":4.2,"rating_source":"diningcode"},
    {"name":"월화고기 상암직영점","signature_menu":"동물복지 삼겹살·갈매기살","avg_price":"18000-25000","category":"고기","address":"서울 마포구 매봉산로2안길 12-6","lat":37.5806,"lng":126.8915,"coord_confidence":"approximate","phone":"0507-1408-7592","rating":5.0,"rating_source":"tripadvisor"},
    {"name":"상암일미락","signature_menu":"통삼겹살·통목살","avg_price":"15000-20000","category":"고기","address":"서울 마포구 성암로13길 40","lat":37.5783,"lng":126.8893,"coord_confidence":"approximate","phone":"02-302-9293","rating":4.3,"rating_source":"diningcode"},
    {"name":"교촌치킨 상암점","signature_menu":"교촌오리지날·허니콤보","avg_price":"12000-20000","category":"치킨","address":"서울 마포구 월드컵북로48길 14","lat":37.5798,"lng":126.8901,"coord_confidence":"approximate","phone":"02-374-9259","rating":4.4,"rating_source":"diningcode"},
    {"name":"참치공방 상암점","signature_menu":"참치무한리필·참치회","avg_price":"30000-40000","category":"회","address":"서울 마포구 월드컵북로 402 KGIT센터 2층","lat":37.5797,"lng":126.8884,"coord_confidence":"approximate","phone":"02-6393-5223","rating":4.4,"rating_source":"diningcode"},
    {"name":"누리정","signature_menu":"두부김치찌개·뚝닭갈비볶음","avg_price":"8500-10000","category":"한식","address":"서울 마포구 월드컵북로 396","lat":37.5793,"lng":126.8896,"coord_confidence":"approximate","phone":"02-2231-0715","rating":null,"rating_source":"none"},
    {"name":"카레공간 DDMC점","signature_menu":"치킨까스카레·소시지카레","avg_price":"9000-12000","category":"카레","address":"서울 마포구 매봉산로 75","lat":37.5801,"lng":126.8908,"coord_confidence":"approximate","phone":"","rating":5.0,"rating_source":"diningcode"},
    {"name":"시카노이에 상암점","signature_menu":"명란새우오므라이스·숙성연어덮밥","avg_price":"16000-18000","category":"덮밥","address":"서울 마포구 성암로13길 16","lat":37.5785,"lng":126.8897,"coord_confidence":"approximate","phone":"0507-1320-8243","rating":3.9,"rating_source":"diningcode"},
    {"name":"샐러디 상암DMC점","signature_menu":"로스트닭다리살 샐러드·우삼겹메밀면 누들볼","avg_price":"9000-13000","category":"샐러드","address":"서울 마포구 월드컵북로54길 25 상암DMC푸르지오 1층 119호","lat":37.5803,"lng":126.8889,"coord_confidence":"approximate","phone":"02-307-7977","rating":4.0,"rating_source":"diningcode"}
  ]
}
