{
  "meta": {
    "anchor": "DMC첨단산업센터 (서울 마포구 성암로 330)",
    "anchor_lat": 37.5845,
    "anchor_lng": 126.8856,
    "radius_m": 400,
    "count": 40,
    "purpose": "점심 맛집 지도 (회사 반경 400m, 음식점만)",
    "source": "naver map + 상암DMC 상권",
    "caveats": [
      "DMC첨단산업센터 기준 400m 이내 음식점만 (카페·편의점 제외).",
      "구내식당 코너는 점심 룰렛용 분리 표기.",
      "네이버 지도·상권 기준 좌표."
    ]
  },
  "restaurants": [
    {
      "name": "레이시오",
      "signature_menu": "양식",
      "avg_price": "10000-15000",
      "category": "양식",
      "address": "서울 마포구 성암로 330",
      "lat": 37.58468,
      "lng": 126.88582,
      "rating": null,
      "rating_source": "none",
      "coord_confidence": "naver",
      "phone": ""
    },
    {
      "name": "델리FS Korean 코너",
      "signature_menu": "제육볶음/한식",
      "avg_price": "5500-6500",
      "category": "한식/백반",
      "address": "서울 마포구 성암로 330 B동 8층",
      "lat": 37.58462,
      "lng": 126.88595,
      "rating": null,
      "rating_source": "none",
      "coord_confidence": "naver",
      "phone": ""
    },
    {
      "name": "델리FS 테이크아웃",
      "signature_menu": "간편식/라면",
      "avg_price": "3000-6500",
      "category": "분식",
      "address": "서울 마포구 성암로 330 B동 8층",
      "lat": 37.58456,
      "lng": 126.88598,
      "rating": null,
      "rating_source": "none",
      "coord_confidence": "naver",
      "phone": ""
    },
    {
      "name": "월반 맛이 깊은집",
      "signature_menu": "월반정식/제육볶음",
      "avg_price": "8000-10000",
      "category": "한식",
      "address": "서울 마포구 성암로 330",
      "lat": 37.58473,
      "lng": 126.8859,
      "rating": 4.0,
      "rating_source": "naver",
      "coord_confidence": "naver",
      "phone": ""
    },
    {
      "name": "델리FS DMC첨단산업센터 구내식당",
      "signature_menu": "뷔페식 중식",
      "avg_price": "5500-6500",
      "category": "한식/백반",
      "address": "서울 마포구 성암로 330 B동 8층",
      "lat": 37.5846,
      "lng": 126.886,
      "rating": 4.2,
      "rating_source": "naver",
      "coord_confidence": "naver",
      "phone": ""
    },
    {
      "name": "델리FS Deli 코너",
      "signature_menu": "파스타/양식",
      "avg_price": "5500-6500",
      "category": "양식",
      "address": "서울 마포구 성암로 330 B동 8층",
      "lat": 37.58458,
      "lng": 126.88605,
      "rating": null,
      "rating_source": "none",
      "coord_confidence": "naver",
      "phone": ""
    },
    {
      "name": "델리FS Kitchen 코너",
      "signature_menu": "국밥/정식",
      "avg_price": "5500-6500",
      "category": "한식",
      "address": "서울 마포구 성암로 330 B동 8층",
      "lat": 37.58464,
      "lng": 126.88608,
      "rating": null,
      "rating_source": "none",
      "coord_confidence": "naver",
      "phone": ""
    },
    {
      "name": "한나절 고깃국",
      "signature_menu": "고깃국/우거지국",
      "avg_price": "9000-11000",
      "category": "국밥",
      "address": "서울 마포구 성암로 330 지1층",
      "lat": 37.5849,
      "lng": 126.8855,
      "rating": null,
      "rating_source": "none",
      "coord_confidence": "naver",
      "phone": ""
    },
    {
      "name": "헤비스테이크 상암DMC점",
      "signature_menu": "스테이크/치즈불고기",
      "avg_price": "8900-12000",
      "category": "양식",
      "address": "서울 마포구 월드컵북로 396",
      "lat": 37.58542,
      "lng": 126.88685,
      "rating": 4.2,
      "rating_source": "naver",
      "coord_confidence": "naver",
      "phone": ""
    },
    {
      "name": "새참당 상암DMC본점",
      "signature_menu": "김치제육덮밥/파스타",
      "avg_price": "9000-12000",
      "category": "퓨전한식",
      "address": "서울 마포구 월드컵북로 396",
      "lat": 37.58538,
      "lng": 126.8869,
      "rating": 4.3,
      "rating_source": "naver",
      "coord_confidence": "naver",
      "phone": ""
    },
    {
      "name": "오복소바 상암점",
      "signature_menu": "소바/우동",
      "avg_price": "9000-12000",
      "category": "일식",
      "address": "서울 마포구 월드컵북로 396",
      "lat": 37.58535,
      "lng": 126.88695,
      "rating": 4.1,
      "rating_source": "naver",
      "coord_confidence": "naver",
      "phone": ""
    },
    {
      "name": "원할머니보쌈족발 상암점",
      "signature_menu": "보쌈/족발",
      "avg_price": "10000-15000",
      "category": "한식",
      "address": "서울 마포구 가양대로 440",
      "lat": 37.58587,
      "lng": 126.8855,
      "rating": null,
      "rating_source": "none",
      "coord_confidence": "naver",
      "phone": ""
    },
    {
      "name": "죠스떡볶이 상암점",
      "signature_menu": "떡볶이/튀김",
      "avg_price": "4000-8000",
      "category": "분식",
      "address": "서울 마포구 가양대로 442",
      "lat": 37.58588,
      "lng": 126.8856,
      "rating": null,
      "rating_source": "none",
      "coord_confidence": "naver",
      "phone": ""
    },
    {
      "name": "도미노피자 상암점",
      "signature_menu": "피자",
      "avg_price": "10000-15000",
      "category": "양식/피자",
      "address": "서울 마포구 가양대로 442",
      "lat": 37.58589,
      "lng": 126.88564,
      "rating": null,
      "rating_source": "none",
      "coord_confidence": "naver",
      "phone": ""
    },
    {
      "name": "롯데리아 상암점",
      "signature_menu": "버거",
      "avg_price": "4000-8000",
      "category": "패스트푸드",
      "address": "서울 마포구 가양대로 440",
      "lat": 37.58588,
      "lng": 126.88538,
      "rating": null,
      "rating_source": "none",
      "coord_confidence": "naver",
      "phone": ""
    },
    {
      "name": "미스터피자 상암점",
      "signature_menu": "피자",
      "avg_price": "10000-15000",
      "category": "양식/피자",
      "address": "서울 마포구 가양대로 440",
      "lat": 37.5859,
      "lng": 126.88552,
      "rating": null,
      "rating_source": "none",
      "coord_confidence": "naver",
      "phone": ""
    },
    {
      "name": "본도시락 상암점",
      "signature_menu": "도시락",
      "avg_price": "5000-7000",
      "category": "한식",
      "address": "서울 마포구 가양대로 442",
      "lat": 37.5859,
      "lng": 126.88572,
      "rating": null,
      "rating_source": "none",
      "coord_confidence": "naver",
      "phone": ""
    },
    {
      "name": "서브웨이 상암점",
      "signature_menu": "샌드위치",
      "avg_price": "6000-9000",
      "category": "패스트푸드",
      "address": "서울 마포구 가양대로 442",
      "lat": 37.58591,
      "lng": 126.88556,
      "rating": null,
      "rating_source": "none",
      "coord_confidence": "naver",
      "phone": ""
    },
    {
      "name": "신의주찹쌀순대 상암점",
      "signature_menu": "순대국",
      "avg_price": "8000-10000",
      "category": "국밥",
      "address": "서울 마포구 가양대로 440",
      "lat": 37.58592,
      "lng": 126.88548,
      "rating": null,
      "rating_source": "none",
      "coord_confidence": "naver",
      "phone": ""
    },
    {
      "name": "놀부부대찌개 상암점",
      "signature_menu": "부대찌개",
      "avg_price": "8000-10000",
      "category": "한식",
      "address": "서울 마포구 가양대로 442",
      "lat": 37.58593,
      "lng": 126.88566,
      "rating": null,
      "rating_source": "none",
      "coord_confidence": "naver",
      "phone": ""
    },
    {
      "name": "본죽 상암점",
      "signature_menu": "전복죽/닭죽",
      "avg_price": "8000-10000",
      "category": "한식/죽",
      "address": "서울 마포구 가양대로 442",
      "lat": 37.58595,
      "lng": 126.88564,
      "rating": 4.0,
      "rating_source": "naver",
      "coord_confidence": "naver",
      "phone": ""
    },
    {
      "name": "홍콩반점 상암점",
      "signature_menu": "짜장면",
      "avg_price": "7000-10000",
      "category": "중식",
      "address": "서울 마포구 가양대로 442",
      "lat": 37.58597,
      "lng": 126.88562,
      "rating": null,
      "rating_source": "none",
      "coord_confidence": "naver",
      "phone": ""
    },
    {
      "name": "역전우동0410 상암점",
      "signature_menu": "우동/가츠동",
      "avg_price": "7000-10000",
      "category": "일식(우동)",
      "address": "서울 마포구 가양대로 440",
      "lat": 37.58598,
      "lng": 126.88552,
      "rating": 4.1,
      "rating_source": "naver",
      "coord_confidence": "naver",
      "phone": ""
    },
    {
      "name": "김밥천국 상암점",
      "signature_menu": "김밥/라면",
      "avg_price": "4000-8000",
      "category": "분식",
      "address": "서울 마포구 가양대로 442",
      "lat": 37.586,
      "lng": 126.88558,
      "rating": 3.8,
      "rating_source": "naver",
      "coord_confidence": "naver",
      "phone": ""
    },
    {
      "name": "한솥 상암DMC점",
      "signature_menu": "도시락",
      "avg_price": "5000-7000",
      "category": "한식",
      "address": "서울 마포구 가양대로 440",
      "lat": 37.586,
      "lng": 126.8854,
      "rating": null,
      "rating_source": "none",
      "coord_confidence": "naver",
      "phone": ""
    },
    {
      "name": "맘스터치 상암점",
      "signature_menu": "버거",
      "avg_price": "5000-9000",
      "category": "패스트푸드",
      "address": "서울 마포구 가양대로 440",
      "lat": 37.58601,
      "lng": 126.88554,
      "rating": null,
      "rating_source": "none",
      "coord_confidence": "naver",
      "phone": ""
    },
    {
      "name": "청년다방 상암점",
      "signature_menu": "떡볶이",
      "avg_price": "5000-8000",
      "category": "분식",
      "address": "서울 마포구 가양대로 440",
      "lat": 37.58602,
      "lng": 126.8855,
      "rating": null,
      "rating_source": "none",
      "coord_confidence": "naver",
      "phone": ""
    },
    {
      "name": "교촌치킨 상암점",
      "signature_menu": "치킨",
      "avg_price": "15000-20000",
      "category": "치킨",
      "address": "서울 마포구 가양대로 440",
      "lat": 37.58603,
      "lng": 126.88548,
      "rating": null,
      "rating_source": "none",
      "coord_confidence": "naver",
      "phone": ""
    },
    {
      "name": "돈까스클러 상암점",
      "signature_menu": "돈까스",
      "avg_price": "8000-10000",
      "category": "일식",
      "address": "서울 마포구 가양대로 442",
      "lat": 37.58602,
      "lng": 126.88586,
      "rating": null,
      "rating_source": "none",
      "coord_confidence": "naver",
      "phone": ""
    },
    {
      "name": "순대국밥 상암점",
      "signature_menu": "순대국",
      "avg_price": "8000-10000",
      "category": "국밥",
      "address": "서울 마포구 가양대로 442",
      "lat": 37.58604,
      "lng": 126.88584,
      "rating": null,
      "rating_source": "none",
      "coord_confidence": "naver",
      "phone": ""
    },
    {
      "name": "미스사이공 상암DMC점",
      "signature_menu": "쌀국수/분짜",
      "avg_price": "9000-12000",
      "category": "베트남",
      "address": "서울 마포구 가양대로 440",
      "lat": 37.58605,
      "lng": 126.88542,
      "rating": 4.0,
      "rating_source": "naver",
      "coord_confidence": "naver",
      "phone": ""
    },
    {
      "name": "백소정 상암DMC점",
      "signature_menu": "돈까스",
      "avg_price": "8000-10000",
      "category": "일식",
      "address": "서울 마포구 가양대로 442",
      "lat": 37.58606,
      "lng": 126.88574,
      "rating": 4.0,
      "rating_source": "naver",
      "coord_confidence": "naver",
      "phone": ""
    },
    {
      "name": "미분당 상암DMC점",
      "signature_menu": "쌀국수",
      "avg_price": "9000-11000",
      "category": "베트남",
      "address": "서울 마포구 가양대로 442",
      "lat": 37.58608,
      "lng": 126.8857,
      "rating": 4.1,
      "rating_source": "naver",
      "coord_confidence": "naver",
      "phone": ""
    },
    {
      "name": "호식이두마리치킨 상암점",
      "signature_menu": "치킨/떡볶이",
      "avg_price": "12000-18000",
      "category": "치킨",
      "address": "서울 마포구 가양대로 442",
      "lat": 37.58608,
      "lng": 126.88582,
      "rating": null,
      "rating_source": "none",
      "coord_confidence": "naver",
      "phone": ""
    },
    {
      "name": "버거킹 상암DMC점",
      "signature_menu": "버거",
      "avg_price": "5000-9000",
      "category": "패스트푸드",
      "address": "서울 마포구 가양대로 442",
      "lat": 37.5861,
      "lng": 126.88576,
      "rating": null,
      "rating_source": "none",
      "coord_confidence": "naver",
      "phone": ""
    },
    {
      "name": "갓갈비 상암DMC점",
      "signature_menu": "돼지갈비",
      "avg_price": "10000-15000",
      "category": "한식/고기",
      "address": "서울 마포구 가양대로 440",
      "lat": 37.58612,
      "lng": 126.88538,
      "rating": 4.0,
      "rating_source": "naver",
      "coord_confidence": "naver",
      "phone": ""
    },
    {
      "name": "파파존스 상암DMC점",
      "signature_menu": "피자",
      "avg_price": "10000-15000",
      "category": "양식/피자",
      "address": "서울 마포구 가양대로 442",
      "lat": 37.58614,
      "lng": 126.88578,
      "rating": null,
      "rating_source": "none",
      "coord_confidence": "naver",
      "phone": ""
    },
    {
      "name": "맥도날드 상암DMC점",
      "signature_menu": "버거",
      "avg_price": "5000-9000",
      "category": "패스트푸드",
      "address": "서울 마포구 가양대로 440",
      "lat": 37.58615,
      "lng": 126.88544,
      "rating": null,
      "rating_source": "none",
      "coord_confidence": "naver",
      "phone": ""
    },
    {
      "name": "BHC치킨 상암점",
      "signature_menu": "치킨",
      "avg_price": "15000-20000",
      "category": "치킨",
      "address": "서울 마포구 가양대로 442",
      "lat": 37.58616,
      "lng": 126.8858,
      "rating": null,
      "rating_source": "none",
      "coord_confidence": "naver",
      "phone": ""
    },
    {
      "name": "BBQ치킨 상암점",
      "signature_menu": "치킨",
      "avg_price": "15000-20000",
      "category": "치킨",
      "address": "서울 마포구 가양대로 440",
      "lat": 37.58618,
      "lng": 126.88546,
      "rating": null,
      "rating_source": "none",
      "coord_confidence": "naver",
      "phone": ""
    }
  ]
}
